[{"address":"109 West 129th Street","details":"","building":"SRO Building","title":"A CHANCE TO LIVE AGAIN - A Chance To Live Again","location_notes":"  Basement, (@ Lenox Avenue) NY 10027","wheelchair_accesible":"True","day":"Wednesdays","start_time":"6:00 PM","end_time":"7:00 PM","type":"Meeting Type BB = Big Book meeting ","newAddress":"109 W 129TH ST New York NY ","latitude":"40.8105033439451","longitude":"-73.9438349756133"},{"address":"109 West 129th Street","details":"","building":"SRO Building","title":"A CHANCE TO LIVE AGAIN - A Chance To Live Again","location_notes":"  Basement, (@ Lenox Avenue) NY 10027","wheelchair_accesible":"True","day":"Mondays","start_time":"7:00 PM","end_time":"8:00 PM","type":"Meeting Type B = Beginners meeting ","newAddress":"109 W 129TH ST New York NY ","latitude":"40.8105033439451","longitude":"-73.9438349756133"},{"address":"240 West 145th Street","details":"Thu=Altern.BB, Living Sober & Other A.A. Literature. Fri.=Alternates between Step & Tradition.","building":"Union Baptist Church","title":"AA IT WORKS  II - AA It Works II","location_notes":" (Betw 7th & 8th Avenues) NY 10039","wheelchair_accesible":"True","day":"Wednesdays","start_time":"10:00 AM","end_time":"11:00 AM","type":"Meeting Type B = Beginners meeting ","newAddress":"240 W 145TH ST New York NY ","latitude":"40.8220449603096","longitude":"-73.9402738669626"},{"address":"240 West 145th Street","details":"Thu=Altern.BB, Living Sober & Other A.A. Literature. Fri.=Alternates between Step & Tradition.","building":"Union Baptist Church","title":"AA IT WORKS  II - AA It Works II","location_notes":" (Betw 7th & 8th Avenues) NY 10039","wheelchair_accesible":"True","day":"Thursdays","start_time":"10:00 AM","end_time":"11:00 AM","type":"Meeting Type BB = Big Book meeting ","newAddress":"240 W 145TH ST New York NY ","latitude":"40.8220449603096","longitude":"-73.9402738669626"},{"address":"240 West 145th Street","details":"Thu=Altern.BB, Living Sober & Other A.A. Literature. Fri.=Alternates between Step & Tradition.","building":"Union Baptist Church","title":"AA IT WORKS  II - AA It Works II","location_notes":" (Betw 7th & 8th Avenues) NY 10039","wheelchair_accesible":"True","day":"Fridays","start_time":"10:00 AM","end_time":"11:00 AM","type":"Meeting Type S = Step meeting ","newAddress":"240 W 145TH ST New York NY ","latitude":"40.8220449603096","longitude":"-73.9402738669626"},{"address":"240 West 145th Street","details":"Thu=Altern.BB, Living Sober & Other A.A. Literature. Fri.=Alternates between Step & Tradition.","building":"Union Baptist Church","title":"AA IT WORKS  II - AA It Works II","location_notes":" (Betw 7th & 8th Avenues) NY 10039","wheelchair_accesible":"True","day":"Tuesdays","start_time":"10:00 AM","end_time":"11:00 AM","type":"Meeting Type OD = Open Discussion meeting ","newAddress":"240 W 145TH ST New York NY ","latitude":"40.8220449603096","longitude":"-73.9402738669626"},{"address":"469 West 142nd Street","details":"Topic 1st Saturday.","building":"Our Lady of Lourdes Church","title":"ATTITUDE ADJUSTMENT - Attitude Adjustment","location_notes":" Basement, (Betw Convent & Amsterdam Avenues) NY 10031","wheelchair_accesible":"False","day":"Saturdays","start_time":"7:30 AM","end_time":"8:30 AM","type":"Meeting Type OD = Open Discussion meeting ","newAddress":"469 W 142ND ST New York NY ","latitude":"40.8232200234845","longitude":"-73.9485449135295"},{"address":"204 West 134th Street","details":"B-3rd Saturday","building":"St. Phillip Church","title":"CONVENT -","location_notes":" 1st Floor, (Betw 7th & 8th Avenues) 10030","wheelchair_accesible":"False","day":"Saturdays","start_time":"11:30 AM","end_time":"1:00 PM","type":"Meeting Type OD = Open Discussion meeting ","newAddress":"204 W 134TH ST New York NY ","latitude":"40.8146053686072","longitude":"-73.9443570754889"},{"address":"2044 Adam Clayton Powell Blvd.","details":"T If there is a fifth Wednesday.","building":"Spiritual Renewal Church","title":"FELLOWSHIP AT NOON - Fellowship At Noon","location_notes":" (@ 122nd Street) NY 10027","wheelchair_accesible":"False","day":"Mondays","start_time":"12:15 PM","end_time":"1:15 PM","type":"Meeting Type B = Beginners meeting ","newAddress":"2044 ADAM CLAYTON POWELL BLVD New York NY ","latitude":"40.8072665297278","longitude":"-73.9499061022154"},{"address":"2044 Adam Clayton Powell Blvd.","details":"T If there is a fifth Wednesday.","building":"Spiritual Renewal Church","title":"FELLOWSHIP AT NOON - Fellowship At Noon","location_notes":" (@ 122nd Street) NY 10027","wheelchair_accesible":"False","day":"Wednesdays","start_time":"12:15 PM","end_time":"1:15 PM","type":"Meeting Type S = Step meeting ","newAddress":"2044 ADAM CLAYTON POWELL BLVD New York NY ","latitude":"40.8072665297278","longitude":"-73.9499061022154"},{"address":"2044 Adam Clayton Powell Blvd.","details":"T If there is a fifth Wednesday.","building":"Spiritual Renewal Church","title":"FELLOWSHIP AT NOON - Fellowship At Noon","location_notes":" (@ 122nd Street) NY 10027","wheelchair_accesible":"False","day":"Fridays","start_time":"12:15 PM","end_time":"1:15 PM","type":"Meeting Type OD = Open Discussion meeting ","newAddress":"2044 ADAM CLAYTON POWELL BLVD New York NY ","latitude":"40.8072665297278","longitude":"-73.9499061022154"},{"address":"469 West 142nd Street","details":"Spanish speaking meeting.","building":"","title":"GRUPO TRASMITELO -","location_notes":" 1st Floor, (Betw. Amsterdam & Convent Avenues) 10031","wheelchair_accesible":"False","day":"Thursdays","start_time":"8:00 PM","end_time":"9:00 PM","type":"Meeting Type B = Beginners meeting ","newAddress":"469 W 142ND ST New York NY ","latitude":"40.8232200234845","longitude":"-73.9485449135295"},{"address":"521 W 126th St","details":"Contact in Advance for Wheelcahir Accessibility","building":"St. Mary's Episcopal","title":"HARLEM HUMANISTS -","location_notes":" Amsterdam & Old Broadway 10027","wheelchair_accesible":"True","day":"Mondays","start_time":"12:00 PM","end_time":"1:00 PM","type":"Meeting Type O = Open meeting ","newAddress":"521 W 126TH ST New York NY ","latitude":"40.8144929933342","longitude":"-73.9558896362264"},{"address":"109 West 129th Street","details":"All meetings are non-smoking.","building":"SRO Building Community Room","title":"K.I.S.S. - Keep It Simple (Kiss)","location_notes":" Basement, (Betw Lenox Avenue & Adam Clayton Powell Blvd) NY 10027","wheelchair_accesible":"True","day":"Sundays","start_time":"5:30 PM","end_time":"6:30 PM","type":"Meeting Type S = Step meeting ","newAddress":"109 W 129TH ST New York NY ","latitude":"40.8105033439451","longitude":"-73.9438349756133"},{"address":"109 West 129th Street","details":"All meetings are non-smoking.","building":"SRO Building Community Room","title":"K.I.S.S. - Keep It Simple (Kiss)","location_notes":" Basement, (Betw Lenox Avenue & Adam Clayton Powell Blvd) NY 10027","wheelchair_accesible":"True","day":"Sundays","start_time":"7:00 PM","end_time":"8:00 PM","type":"Meeting Type B = Beginners meeting ","newAddress":"109 W 129TH ST New York NY ","latitude":"40.8105033439451","longitude":"-73.9438349756133"},{"address":"469 West 142nd Street","details":"","building":"Our Lady of Lourdes","title":"LEARNING TO LIVE SOBER - Learning To Live Sober","location_notes":" Basement, (Betw Convent & Amsterdam Avenues) NY 10031","wheelchair_accesible":"False","day":"Thursdays","start_time":"6:00 PM","end_time":"7:00 PM","type":"Meeting Type BB = Big Book meeting ","newAddress":"469 W 142ND ST New York NY ","latitude":"40.8232200234845","longitude":"-73.9485449135295"},{"address":"2044 Seventh Avenue","details":"S 2nd, BB 3rd, OD 4th, Living Sober 5th wk.","building":"","title":"LIVING CLEAN AND SOBER ON 121st STREET - Living Clean And Sober On 121st Street","location_notes":" NY 10027","wheelchair_accesible":"True","day":"Sundays","start_time":"6:00 PM","end_time":"7:30 PM","type":"Meeting Type B = Beginners meeting ","newAddress":"2044 SEVENTH AVE New York NY ","latitude":"40.8071759186691","longitude":"-73.9497519327616"},{"address":"127 West 127th Street","details":"Meeting is closed on holidays","building":"S.A.G.E.","title":"MEDITATION COMES TO HARLEM - Meditation Comes To Harlem","location_notes":" (Betw. 7th and Lenox) NY 10027","wheelchair_accesible":"True","day":"Mondays","start_time":"4:30 PM","end_time":"5:30 PM","type":"Meeting Type C = Closed Discussion meeting ","newAddress":"127 W 127TH ST New York NY ","latitude":"40.8094766772235","longitude":"-73.9452613355488"},{"address":"310 West 139th Street","details":"T 1st Monday at 7PM Open 1st Friday 8:10pm, Pitch other Fridays 8:10pm","building":"Grace Congregational Baptist Church","title":"MID-HARLEM - Mid-Harlem","location_notes":" Basement, (Betw Eighth & Edgecombe Avenues) NY 10037","wheelchair_accesible":"False","day":"Mondays","start_time":"7:00 PM","end_time":"8:00 PM","type":"Meeting Type S = Step meeting ","newAddress":"310 W 139TH ST New York NY ","latitude":"40.8190256453939","longitude":"-73.9448681362397"},{"address":"310 West 139th Street","details":"T 1st Monday at 7PM Open 1st Friday 8:10pm, Pitch other Fridays 8:10pm","building":"Grace Congregational Baptist Church","title":"MID-HARLEM - Mid-Harlem","location_notes":" Basement, (Betw Eighth & Edgecombe Avenues) NY 10037","wheelchair_accesible":"False","day":"Fridays","start_time":"7:00 PM","end_time":"8:00 PM","type":"Meeting Type B = Beginners meeting ","newAddress":"310 W 139TH ST New York NY ","latitude":"40.8190256453939","longitude":"-73.9448681362397"},{"address":"310 West 139th Street","details":"T 1st Monday at 7PM Open 1st Friday 8:10pm, Pitch other Fridays 8:10pm","building":"Grace Congregational Baptist Church","title":"MID-HARLEM - Mid-Harlem","location_notes":" Basement, (Betw Eighth & Edgecombe Avenues) NY 10037","wheelchair_accesible":"False","day":"Fridays","start_time":"8:00 PM","end_time":"9:00 PM","type":"Meeting Type O = Open meeting ","newAddress":"310 W 139TH ST New York NY ","latitude":"40.8190256453939","longitude":"-73.9448681362397"},{"address":"409 West 141st Street","details":"","building":"St. James Church","title":"MONDAY NIGHT CHALLENGE - Monday Night Challenge","location_notes":"  Basement, (@ St. Nicholas Avenue) NY 10031","wheelchair_accesible":"False","day":"Mondays","start_time":"7:00 PM","end_time":"8:00 PM","type":"Meeting Type B = Beginners meeting ","newAddress":"409 W 141ST ST New York NY ","latitude":"40.8215326572652","longitude":"-73.9464830279892"},{"address":"91 Claremont Avenue","details":"","building":"Riverside Church","title":"PRIMARY PURPOSE - Primary Purpose","location_notes":"  4th Floor, Room 414, (Betw. Broadway & Riverside Drive)) NY 10027","wheelchair_accesible":"True","day":"Sundays","start_time":"3:00 PM","end_time":"4:00 PM","type":"Meeting Type OD = Open Discussion meeting ","newAddress":"91 CLAREMONT AVE New York NY ","latitude":"40.8119642222478","longitude":"-73.9625130600971"},{"address":"1727 Amsterdam Avenue","details":"1st Sun-OD; 2nd Sun-S; 3rd Sun-Topic; 4th Sun-T; 5th Sun-OD","building":"Upper Manhattan Mental Health Center","title":"PROMISES TWO FOR ONE - Promises Two For One","location_notes":" 1st Floor in the rear., (@ 145th Street) NY 10031","wheelchair_accesible":"True","day":"Sundays","start_time":"9:30 AM","end_time":"10:30 AM","type":"Meeting Type B = Beginners meeting ","newAddress":"1727 AMSTERDAM AVE New York NY ","latitude":"40.8255","longitude":"-73.9472"},{"address":"1727 Amsterdam Avenue","details":"1st Sun-OD; 2nd Sun-S; 3rd Sun-Topic; 4th Sun-T; 5th Sun-OD","building":"Upper Manhattan Mental Health Center","title":"PROMISES TWO FOR ONE - Promises Two For One","location_notes":" 1st Floor in the rear., (@ 145th Street) NY 10031","wheelchair_accesible":"True","day":"Sundays","start_time":"11:00 AM","end_time":"12:00 PM","type":"Meeting Type C = Closed Discussion meeting ","newAddress":"1727 AMSTERDAM AVE New York NY ","latitude":"40.8255371320577","longitude":"-73.9471630832303"},{"address":"469 West 142nd Street","details":"S 4th Saturday Men's Meeting","building":"Our Lady of Lourdes Church","title":"REALITY CHECK - Reality Check","location_notes":" Basement, (Betw Convent & Amsterdam Avenues) NY 10037","wheelchair_accesible":"False","day":"Saturdays","start_time":"5:00 PM","end_time":"6:00 PM","type":"Meeting Type OD = Open Discussion meeting ","newAddress":"469 W 142ND ST New York NY ","latitude":"40.8232200234845","longitude":"-73.9485449135295"},{"address":"91 Claremont Avenue","details":"Non-Smoking Meeting.","building":"Riverside Church","title":"RIVERSIDE - Riverside","location_notes":"  @ The Cloisters Club Room, (1 Block West of Broadway & 1/2 Block North of 120th Street) NY 10027","wheelchair_accesible":"True","day":"Mondays","start_time":"7:00 PM","end_time":"8:00 PM","type":"Meeting Type C = Closed Discussion meeting ","newAddress":"91 CLAREMONT AVE New York NY ","latitude":"40.812","longitude":"-73.9625"},{"address":"219 West 132nd Street","details":"S 2nd & T 4th Tue All meetings are non-smoking.  No children allowed at meetings.","building":"St. Aloysius School","title":"RIVERTON - Riverton","location_notes":" Cafeteria, (Betw. Adam Clayton Powell Blvd. & F. Douglass Blvd.) NY 10027","wheelchair_accesible":"False","day":"Saturdays","start_time":"3:00 PM","end_time":"4:00 PM","type":"Meeting Type B = Beginners meeting ","newAddress":"219 W 132ND ST New York NY ","latitude":"40.8136938017217","longitude":"-73.9455988432903"},{"address":"219 West 132nd Street","details":"S 2nd & T 4th Tue All meetings are non-smoking.  No children allowed at meetings.","building":"St. Aloysius School","title":"RIVERTON - Riverton","location_notes":" Cafeteria, (Betw. Adam Clayton Powell Blvd. & F. Douglass Blvd.) NY 10027","wheelchair_accesible":"False","day":"Saturdays","start_time":"6:00 PM","end_time":"7:00 PM","type":"Meeting Type O = Open meeting ","newAddress":"219 W 132ND ST New York NY ","latitude":"40.8136938017217","longitude":"-73.9455988432903"},{"address":"219 West 132nd Street","details":"S 2nd & T 4th Tue All meetings are non-smoking.  No children allowed at meetings.","building":"St. Aloysius School","title":"RIVERTON - Riverton","location_notes":" Cafeteria, (Betw. Adam Clayton Powell Blvd. & F. Douglass Blvd.) NY 10027","wheelchair_accesible":"False","day":"Tuesdays","start_time":"8:00 PM","end_time":"9:00 PM","type":"","newAddress":"219 W 132ND ST New York NY ","latitude":"40.8136938017217","longitude":"-73.9455988432903"},{"address":"211 West 129th Street","details":"O 2nd Wednesday","building":"Salem United Methodist Church Community Center","title":"SALEM - Salem","location_notes":" Downstairs in the Gym, (@ Adam Clayton Powell Blvd.) NY 10027","wheelchair_accesible":"True","day":"Wednesdays","start_time":"7:30 PM","end_time":"8:30 PM","type":"Meeting Type C = Closed Discussion meeting ","newAddress":"211 W 129TH ST New York NY ","latitude":"40.811646918986","longitude":"-73.9465692736586"},{"address":"425 West 144th Street","details":"Men's Meeting","building":"Convent Baptist Church Education Building","title":"SOBER ADULT MEN - Sober Adult Men","location_notes":" 1st Floor, (Betw. Convent Avenue & Hamilton Terrace) NY 10031","wheelchair_accesible":"True","day":"Wednesdays","start_time":"7:00 PM","end_time":"8:00 PM","type":"Meeting Type C = Closed Discussion meeting ","newAddress":"425 W 144TH ST New York NY ","latitude":"40.8238859925299","longitude":"-73.9462723904462"},{"address":"204 West 134th Street","details":"S 2nd, C 3rd, BB 4th, & Grapevine 5th Thu.","building":"St. Phillip's Church","title":"ST. NICHOLAS - St. Nicholas","location_notes":"  Basement, (Betw Adam C. Powell & Frederick Douglas Blvds) NY 10030","wheelchair_accesible":"True","day":"Sundays","start_time":"4:00 PM","end_time":"5:00 PM","type":"Meeting Type O = Open meeting ","newAddress":"204 W 134TH ST New York NY ","latitude":"40.8146053686072","longitude":"-73.9443570754889"},{"address":"204 West 134th Street","details":"S 2nd, C 3rd, BB 4th, & Grapevine 5th Thu.","building":"St. Phillip's Church","title":"ST. NICHOLAS - St. Nicholas","location_notes":"  Basement, (Betw Adam C. Powell & Frederick Douglas Blvds) NY 10030","wheelchair_accesible":"True","day":"Thursdays","start_time":"7:00 PM","end_time":"8:00 PM","type":"Meeting Type B = Beginners meeting ","newAddress":"204 W 134TH ST New York NY ","latitude":"40.8146053686072","longitude":"-73.9443570754889"},{"address":"506 Lenox Avenue","details":"B 1st, OD 2nd, S3 3rd, C Literature 4th, & S11 5th Sun.","building":"Harlem Hospital King Pavilion","title":"STEPS 3 and 11 - Steps Three-Eleven","location_notes":"  Room #3101, 3rd Floor, (@ 135 Street) NY 10037","wheelchair_accesible":"True","day":"Sundays","start_time":"2:00 PM","end_time":"3:00 PM","type":"Meeting Type B = Beginners meeting ","newAddress":"506 LENOX AVE New York NY ","latitude":"40.8143540280369","longitude":"-73.9403080272408"},{"address":"1727 Amsterdam Avenue","details":"","building":"Council Center for Problems of Living","title":"SUGAR HILL -","location_notes":" 1st floor in the rear, @ 145th St. 10031","wheelchair_accesible":"True","day":"Fridays","start_time":"5:30 PM","end_time":"6:30 PM","type":"Meeting Type B = Beginners meeting ","newAddress":"1727 AMSTERDAM AVE New York NY ","latitude":"40.8255371320577","longitude":"-73.9471630832303"},{"address":"1854 Amsterdam Avenue","details":"","building":"","title":"TUESDAY BIG BOOK STUDY - Tuesday Big Book Study","location_notes":" Basment, (Corner of 152nd Street) NY 10031","wheelchair_accesible":"False","day":"Tuesdays","start_time":"6:00 PM","end_time":"7:00 PM","type":"Meeting Type BB = Big Book meeting ","newAddress":"1854 AMSTERDAM AVE New York NY ","latitude":"40.8295984557205","longitude":"-73.9446555334471"},{"address":"469 West 142nd Street","details":"Meeting meets each Saturday from mid-August thru mid-December","building":"Our Lady of Lourdes Church","title":"UPTOWN BIG BOOK WORKSHOP -","location_notes":" Basement, (Betw. Convent & Amsterdam Avenues 10031","wheelchair_accesible":"False","day":"Saturdays","start_time":"9:30 AM","end_time":"11:00 AM","type":"Meeting Type BB = Big Book meeting ","newAddress":"469 W 142ND ST New York NY ","latitude":"40.8232200234845","longitude":"-73.9485449135295"},{"address":"58 West 135th Street","details":"Non-Smoking Meeting.","building":"Metropolitan AME Church","title":"YOU MAY CARE AFTER - You May Care After","location_notes":" (Betw Malcolm X Boulevard & 5th Avenue) NY 10037","wheelchair_accesible":"True","day":"Tuesdays","start_time":"6:30 PM","end_time":"7:30 PM","type":"Meeting Type S = Step meeting ","newAddress":"58 W 135TH ST New York NY ","latitude":"40.8136193269582","longitude":"-73.9399368110258"}]