[{"address":"701 West 168th Street","details":"Check with Security for Room # T Last Thu, Living Sober & Anniv Last Fri. No meetings on public holidays","building":"Columbia Presbyterian Hospital","title":"A NEW WAY OF LIVING - A New Way Of Living","location_notes":" Hammer Health & Science Library NY 10032","wheelchair_accesible":"True","day":"Thursdays","start_time":"12:00 PM","end_time":"1:00 PM","type":"Meeting Type S = Step meeting ","newAddress":"701 W 168TH ST New York NY ","latitude":"40.8417041867874","longitude":"-73.9409996840446"},{"address":"701 West 168th Street","details":"Check with Security for Room # T Last Thu, Living Sober & Anniv Last Fri. No meetings on public holidays","building":"Columbia Presbyterian Hospital","title":"A NEW WAY OF LIVING - A New Way Of Living","location_notes":" Hammer Health & Science Library NY 10032","wheelchair_accesible":"True","day":"Fridays","start_time":"12:00 PM","end_time":"1:00 PM","type":"Meeting Type C = Closed Discussion meeting ","newAddress":"701 W 168TH ST New York NY ","latitude":"40.8417041867874","longitude":"-73.9409996840446"},{"address":"701 West 168th Street","details":"Check with Security for Room # T Last Thu, Living Sober & Anniv Last Fri. No meetings on public holidays","building":"Columbia Presbyterian Hospital","title":"A NEW WAY OF LIVING - A New Way Of Living","location_notes":" Hammer Health & Science Library NY 10032","wheelchair_accesible":"True","day":"Mondays","start_time":"12:00 PM","end_time":"1:00 PM","type":"Meeting Type BB = Big Book meeting ","newAddress":"701 W 168TH ST New York NY ","latitude":"40.8417041867874","longitude":"-73.9409996840446"},{"address":"701 West 168th Street","details":"Check with Security for Room # T Last Thu, Living Sober & Anniv Last Fri. No meetings on public holidays","building":"Columbia Presbyterian Hospital","title":"A NEW WAY OF LIVING - A New Way Of Living","location_notes":" Hammer Health & Science Library NY 10032","wheelchair_accesible":"True","day":"Tuesdays","start_time":"12:00 PM","end_time":"1:00 PM","type":"Meeting Type B = Beginners meeting ","newAddress":"701 W 168TH ST New York NY ","latitude":"40.8417041867874","longitude":"-73.9409996840446"},{"address":"701 West 168th Street","details":"Check with Security for Room # T Last Thu, Living Sober & Anniv Last Fri. No meetings on public holidays","building":"Columbia Presbyterian Hospital","title":"A NEW WAY OF LIVING - A New Way Of Living","location_notes":" Hammer Health & Science Library NY 10032","wheelchair_accesible":"True","day":"Wednesdays","start_time":"12:00 PM","end_time":"1:00 PM","type":"Meeting Type C = Closed Discussion meeting ","newAddress":"701 W 168TH ST New York NY ","latitude":"40.8417041867874","longitude":"-73.9409996840446"},{"address":"715 West 179th Street","details":"Living Sober Last Tuesday, T Last Wednesday","building":"Holy Rood Church","title":"BRIDGE TO SOBRIETY (:I) - Bridge To Sobriety","location_notes":" (Betw Bway & Fort Washington Avenue) NY 10033","wheelchair_accesible":"False","day":"Mondays","start_time":"10:00 AM","end_time":"11:00 AM","type":"Meeting Type OD = Open Discussion meeting ","newAddress":"715 W 179TH ST New York NY ","latitude":"40.8490796467369","longitude":"-73.9373313893221"},{"address":"715 West 179th Street","details":"Living Sober Last Tuesday, T Last Wednesday","building":"Holy Rood Church","title":"BRIDGE TO SOBRIETY (:I) - Bridge To Sobriety","location_notes":" (Betw Bway & Fort Washington Avenue) NY 10033","wheelchair_accesible":"False","day":"Tuesdays","start_time":"10:00 AM","end_time":"11:00 AM","type":"Meeting Type B = Beginners meeting ","newAddress":"715 W 179TH ST New York NY ","latitude":"40.8490796467369","longitude":"-73.9373313893221"},{"address":"715 West 179th Street","details":"Living Sober Last Tuesday, T Last Wednesday","building":"Holy Rood Church","title":"BRIDGE TO SOBRIETY (:I) - Bridge To Sobriety","location_notes":" (Betw Bway & Fort Washington Avenue) NY 10033","wheelchair_accesible":"False","day":"Wednesdays","start_time":"10:00 AM","end_time":"11:00 AM","type":"Meeting Type BB = Big Book meeting ","newAddress":"715 W 179TH ST New York NY ","latitude":"40.8490796467369","longitude":"-73.9373313893221"},{"address":"715 West 179th Street","details":"Living Sober Last Tuesday, T Last Wednesday","building":"Holy Rood Church","title":"BRIDGE TO SOBRIETY (:I) - Bridge To Sobriety","location_notes":" (Betw Bway & Fort Washington Avenue) NY 10033","wheelchair_accesible":"False","day":"Thursdays","start_time":"10:00 AM","end_time":"11:00 AM","type":"Meeting Type S = Step meeting ","newAddress":"715 W 179TH ST New York NY ","latitude":"40.8490796467369","longitude":"-73.9373313893221"},{"address":"715 West 179th Street","details":"Living Sober Last Tuesday, T Last Wednesday","building":"Holy Rood Church","title":"BRIDGE TO SOBRIETY (:I) - Bridge To Sobriety","location_notes":" (Betw Bway & Fort Washington Avenue) NY 10033","wheelchair_accesible":"False","day":"Fridays","start_time":"10:00 AM","end_time":"11:00 AM","type":"Meeting Type OD = Open Discussion meeting ","newAddress":"715 W 179TH ST New York NY ","latitude":"40.8490796467369","longitude":"-73.9373313893221"},{"address":"715 West 179th Street","details":"10th Step","building":"Holy Rood Church","title":"BRIDGE TO SOBRIETY (:II) -","location_notes":" corner of Fort Washington Avenue 10040","wheelchair_accesible":"True","day":"Sundays","start_time":"10:00 AM","end_time":"11:00 AM","type":"Meeting Type S = Step meeting ","newAddress":"715 W 179TH ST New York NY ","latitude":"40.8490796467369","longitude":"-73.9373313893221"},{"address":"431 West 204th Street","details":"BB 1st & T Last Wed.","building":"St. Jude's School","title":"DYCKMAN - Dyckman","location_notes":" Basement, (Off of 10th Avenue) NY 10034","wheelchair_accesible":"False","day":"Sundays","start_time":"12:00 PM","end_time":"1:00 PM","type":"Meeting Type O = Open meeting ","newAddress":"431 W 204TH ST New York NY ","latitude":"40.8620966104922","longitude":"-73.9190004613749"},{"address":"431 West 204th Street","details":"BB 1st & T Last Wed.","building":"St. Jude's School","title":"DYCKMAN - Dyckman","location_notes":" Basement, (Off of 10th Avenue) NY 10034","wheelchair_accesible":"False","day":"Wednesdays","start_time":"7:00 PM","end_time":"8:00 PM","type":"Meeting Type S = Step meeting ","newAddress":"431 W 204TH ST New York NY ","latitude":"40.8620966104922","longitude":"-73.9190004613749"},{"address":"550 West 155th Street","details":"Men's meeting & Gay men's focus. All are welcome. Anniversary last Sat., 1st Sat.=S followed by Bus. Mtg.","building":"Church of the Intercession","title":"FOUND-A-WAY - Found-A-Way","location_notes":" 2nd Floor Guild Room, (Betw Amsterdam Avenue & Bway) NY 10032","wheelchair_accesible":"False","day":"Saturdays","start_time":"12:30 PM","end_time":"2:00 PM","type":"Meeting Type C = Closed Discussion meeting ","newAddress":"550 W 155TH ST New York NY ","latitude":"40.8320961144213","longitude":"-73.944465684352"},{"address":"557 West 156th Street","details":"Spanish Speaking Meetings.","building":"Casita Esperanza","title":"GRUPO DESPERTAR - Grupo Despertar","location_notes":" NY 10032","wheelchair_accesible":"True","day":"Wednesdays","start_time":"8:00 PM","end_time":"10:00 PM","type":"Meeting Type C = Closed Discussion meeting ","newAddress":"557 W 156TH ST New York NY ","latitude":"40.8330065334804","longitude":"-73.9440819529521"},{"address":"557 West 156th Street","details":"Spanish Speaking Meetings.","building":"Casita Esperanza","title":"GRUPO DESPERTAR - Grupo Despertar","location_notes":" NY 10032","wheelchair_accesible":"True","day":"Fridays","start_time":"8:00 PM","end_time":"10:00 PM","type":"Meeting Type OD = Open Discussion meeting ","newAddress":"557 W 156TH ST New York NY ","latitude":"40.8330065334804","longitude":"-73.9440819529521"},{"address":"35 Thayer Street","details":"Spanish speaking meetings.","building":"","title":"GRUPO LA FLAMA PANAMERICANA - Grupo La Flama Panamericana","location_notes":" Basement, (@ 200th Street, behind Dyckman Avenue ) NY 10040","wheelchair_accesible":"True","day":"Sundays","start_time":"5:00 PM","end_time":"7:00 PM","type":"Meeting Type O = Open meeting ","newAddress":"35 THAYER ST New York NY ","latitude":"40.8626229492642","longitude":"-73.9263833803336"},{"address":"35 Thayer Street","details":"Spanish speaking meetings.","building":"","title":"GRUPO LA FLAMA PANAMERICANA - Grupo La Flama Panamericana","location_notes":" Basement, (@ 200th Street, behind Dyckman Avenue ) NY 10040","wheelchair_accesible":"True","day":"Tuesdays","start_time":"8:00 PM","end_time":"10:00 PM","type":"Meeting Type O = Open meeting ","newAddress":"35 THAYER ST New York NY ","latitude":"40.8626","longitude":"-73.9264"},{"address":"35 Thayer Street","details":"Spanish speaking meetings.","building":"","title":"GRUPO LA FLAMA PANAMERICANA - Grupo La Flama Panamericana","location_notes":" Basement, (@ 200th Street, behind Dyckman Avenue ) NY 10040","wheelchair_accesible":"True","day":"Thursdays","start_time":"8:00 PM","end_time":"10:00 PM","type":"Meeting Type O = Open meeting ","newAddress":"35 THAYER ST New York NY ","latitude":"40.8626","longitude":"-73.9264"},{"address":"35 Thayer Street","details":"Spanish speaking meetings.","building":"","title":"GRUPO LA FLAMA PANAMERICANA - Grupo La Flama Panamericana","location_notes":" Basement, (@ 200th Street, behind Dyckman Avenue ) NY 10040","wheelchair_accesible":"True","day":"Saturdays","start_time":"8:00 PM","end_time":"10:00 PM","type":"Meeting Type O = Open meeting ","newAddress":"35 THAYER ST New York NY ","latitude":"40.8626","longitude":"-73.9264"},{"address":"715 West 179th Street","details":"Spanish speaking meetings.","building":"Episcopal Holy Rood Church","title":"GRUPO LIBERTAD - Grupo Libertad","location_notes":" 1st Floor, NY 10033","wheelchair_accesible":"True","day":"Tuesdays","start_time":"7:30 PM","end_time":"8:30 PM","type":"Meeting Type BB = Big Book meeting ","newAddress":"715 W 179TH ST New York NY ","latitude":"40.8490796467369","longitude":"-73.9373313893221"},{"address":"715 West 179th Street","details":"Spanish speaking meetings.","building":"Episcopal Holy Rood Church","title":"GRUPO LIBERTAD - Grupo Libertad","location_notes":" 1st Floor, NY 10033","wheelchair_accesible":"True","day":"Thursdays","start_time":"7:30 PM","end_time":"8:30 PM","type":"Meeting Type BB = Big Book meeting ","newAddress":"715 W 179TH ST New York NY ","latitude":"40.8490796467369","longitude":"-73.9373313893221"},{"address":"715 West 179th Street","details":"Spanish speaking meetings.","building":"Episcopal Holy Rood Church","title":"GRUPO LIBERTAD - Grupo Libertad","location_notes":" 1st Floor, NY 10033","wheelchair_accesible":"True","day":"Thursdays","start_time":"9:30 PM","end_time":"10:30 AM","type":"Meeting Type C = Closed Discussion meeting ","newAddress":"715 W 179TH ST New York NY ","latitude":"40.8490796467369","longitude":"-73.9373313893221"},{"address":"715 West 179th Street","details":"Spanish speaking meetings.","building":"Episcopal Holy Rood Church","title":"GRUPO LIBERTAD - Grupo Libertad","location_notes":" 1st Floor, NY 10033","wheelchair_accesible":"True","day":"Tuesdays","start_time":"9:30 PM","end_time":"10:30 PM","type":"Meeting Type C = Closed Discussion meeting ","newAddress":"715 W 179TH ST New York NY ","latitude":"40.8490796467369","longitude":"-73.9373313893221"},{"address":"502 West165th Street","details":"Spanish speaking meetings.","building":"Church Santa Rosa de Lima","title":"GRUPO RECUPERACION - Grupo Recuperacion","location_notes":" Basement, (Betw. St. Nicholas & Amsterdam Avenues) NY 10032","wheelchair_accesible":"False","day":"Sundays","start_time":"2:30 PM","end_time":"3:30 PM","type":"Meeting Type O = Open meeting ","newAddress":"502 WEST165TH ST New York NY ","latitude":"40.6639307188879","longitude":"-73.9382749875207"},{"address":"502 West165th Street","details":"Spanish speaking meetings.","building":"Church Santa Rosa de Lima","title":"GRUPO RECUPERACION - Grupo Recuperacion","location_notes":" Basement, (Betw. St. Nicholas & Amsterdam Avenues) NY 10032","wheelchair_accesible":"False","day":"Tuesdays","start_time":"8:00 PM","end_time":"9:00 PM","type":"Meeting Type C = Closed Discussion meeting ","newAddress":"502 WEST165TH ST New York NY ","latitude":"40.6639307188879","longitude":"-73.9382749875207"},{"address":"502 West165th Street","details":"Spanish speaking meetings.","building":"Church Santa Rosa de Lima","title":"GRUPO RECUPERACION - Grupo Recuperacion","location_notes":" Basement, (Betw. St. Nicholas & Amsterdam Avenues) NY 10032","wheelchair_accesible":"False","day":"Thursdays","start_time":"8:00 PM","end_time":"9:00 PM","type":"Meeting Type O = Open meeting ","newAddress":"502 WEST165TH ST New York NY ","latitude":"40.6639307188879","longitude":"-73.9382749875207"},{"address":"91 Arden Street","details":"Spanish Speaking Meetings.","building":"Our Lady Queen of Martyrs","title":"GRUPO UN NUEVO AMANECER - Grupo Un Nuevo Amanecer","location_notes":" (2 blocks South of Dyckman Street, Betw. Broadway & Sherman Avenue) NY 10034","wheelchair_accesible":"False","day":"Mondays","start_time":"8:00 PM","end_time":"9:00 PM","type":"Meeting Type C = Closed Discussion meeting ","newAddress":"91 ARDEN ST New York NY ","latitude":"40.8639","longitude":"-73.9283"},{"address":"91 Arden Street","details":"Spanish Speaking Meetings.","building":"Our Lady Queen of Martyrs","title":"GRUPO UN NUEVO AMANECER - Grupo Un Nuevo Amanecer","location_notes":" (2 blocks South of Dyckman Street, Betw. Broadway & Sherman Avenue) NY 10034","wheelchair_accesible":"False","day":"Fridays","start_time":"8:00 PM","end_time":"9:00 PM","type":"Meeting Type OD = Open Discussion meeting ","newAddress":"91 ARDEN ST New York NY ","latitude":"40.8639","longitude":"-73.9283"},{"address":"20 Cumming Street","details":"LGBT All welcome. Sun= As Bill See it; Wed=Steps1-3 Sun.meeting in Sanctuary; Wed meeting in Auditorium","building":"Holy Trinity Episcopal Church","title":"HAPPY DESTINY -","location_notes":" @Seaman Ave. 10034","wheelchair_accesible":"False","day":"Sundays","start_time":"7:30 PM","end_time":"8:30 PM","type":"Meeting Type C = Closed Discussion meeting ","newAddress":"20 CUMMING ST New York NY ","latitude":"40.8664805601797","longitude":"-73.9264534882199"},{"address":"20 Cumming Street","details":"LGBT All welcome. Sun= As Bill See it; Wed=Steps1-3 Sun.meeting in Sanctuary; Wed meeting in Auditorium","building":"Holy Trinity Episcopal Church","title":"HAPPY DESTINY -","location_notes":" @Seaman Ave. 10034","wheelchair_accesible":"False","day":"Wednesdays","start_time":"7:30 PM","end_time":"8:30 PM","type":"Meeting Type B = Beginners meeting ","newAddress":"20 CUMMING ST New York NY ","latitude":"40.8664805601797","longitude":"-73.9264534882199"},{"address":"84 Vermilyea Avenue","details":"Sat. Closed meeting rotating step/speaker/trad/anniversary In Dec. first two weeks will be Step meeting","building":"Mount Washington Presbyterian Church","title":"INWOOD FORT TRYON - Inwood-Ft. Tryon","location_notes":" (@ 204th Street, 1 Block East of Broadway) NY 10034","wheelchair_accesible":"False","day":"Saturdays","start_time":"11:00 AM","end_time":"12:00 PM","type":"Meeting Type B = Beginners meeting ","newAddress":"84 VERMILYEA AVE New York NY ","latitude":"40.866","longitude":"-73.9231"},{"address":"84 Vermilyea Avenue","details":"Sat. Closed meeting rotating step/speaker/trad/anniversary In Dec. first two weeks will be Step meeting","building":"Mount Washington Presbyterian Church","title":"INWOOD FORT TRYON - Inwood-Ft. Tryon","location_notes":" (@ 204th Street, 1 Block East of Broadway) NY 10034","wheelchair_accesible":"False","day":"Saturdays","start_time":"11:00 AM","end_time":"12:00 PM","type":"Meeting Type C = Closed Discussion meeting ","newAddress":"84 VERMILYEA AVE New York NY ","latitude":"40.866","longitude":"-73.9231"},{"address":"84 Vermilyea Avenue","details":"Sat. Closed meeting rotating step/speaker/trad/anniversary In Dec. first two weeks will be Step meeting","building":"Mount Washington Presbyterian Church","title":"INWOOD FORT TRYON - Inwood-Ft. Tryon","location_notes":" (@ 204th Street, 1 Block East of Broadway) NY 10034","wheelchair_accesible":"False","day":"Tuesdays","start_time":"12:30 PM","end_time":"1:30 PM","type":"Meeting Type C = Closed Discussion meeting ","newAddress":"84 VERMILYEA AVE New York NY ","latitude":"40.866","longitude":"-73.9231"},{"address":"620 Isham Street","details":"Open Anniv. Last Mon.","building":"Church of the Good Shepherd","title":"ISHAM PARK - Isham Park","location_notes":" (Betw Cooper Street & Seaman Avenue) NY 10034","wheelchair_accesible":"False","day":"Mondays","start_time":"8:00 PM","end_time":"9:00 PM","type":"Meeting Type C = Closed Discussion meeting ","newAddress":"620 ISHAM ST New York NY ","latitude":"40.8692532379724","longitude":"-73.9206625253877"},{"address":"2005 Amsterdam Avenue","details":"Open Discussion 1st, 2nd, 4th,and 5th when applicable. OPEN meeting is 3rd Fridays","building":"COATHA Church on the Hill Senior Center","title":"PROGRESS NOT PERFECTION -","location_notes":" @ 159th Street 10032","wheelchair_accesible":"True","day":"Fridays","start_time":"7:30 PM","end_time":"8:30 PM","type":"Meeting Type OD = Open Discussion meeting ","newAddress":"2005 AMSTERDAM AVE New York NY ","latitude":"40.8342635888105","longitude":"-73.9407982066313"},{"address":"178 Bennett Avenue","details":"Men's Meeting","building":"Our Saviour's Atonement Lutheran Church","title":"THE MEN UPSTAIRS -","location_notes":" 2nd Floor (Lorenz Library), (@ 189th Street) 10040","wheelchair_accesible":"False","day":"Mondays","start_time":"8:00 PM","end_time":"9:00 PM","type":"Meeting Type C = Closed Discussion meeting ","newAddress":"178 BENNETT AVE New York NY ","latitude":"40.8560152221363","longitude":"-73.9342776437758"},{"address":"178 Bennett Avenue","details":"1st- Step, 2nd-OD, 3rd-Beg., 4th- BB, 5th- OD","building":"Our Saviour's Atonement Church","title":"THE MISSING LINK - Missing Link","location_notes":" 2nd Floor, (@ 189th Street) South Entrance NY 10040","wheelchair_accesible":"False","day":"Fridays","start_time":"7:00 PM","end_time":"8:00 PM","type":"Meeting Type BB = Big Book meeting ","newAddress":"178 BENNETT AVE New York NY ","latitude":"40.8560152221363","longitude":"-73.9342776437758"},{"address":"91 Arden Street","details":"","building":"Our Lady Queen of Martyrs","title":"UPPER MANHATTAN - Upper Manhattan","location_notes":" (2 blocks South of Dyckman Street, Betw. Broadway & Sherman Avenue) NY 10034","wheelchair_accesible":"False","day":"Thursdays","start_time":"7:30 PM","end_time":"8:30 PM","type":"Meeting Type OD = Open Discussion meeting ","newAddress":"91 ARDEN ST New York NY ","latitude":"40.8639155612836","longitude":"-73.9282546578791"},{"address":"20 Cummings Street","details":"","building":"Holy Trinity Church","title":"UPTOWN SATURDAY NIGHT - Uptown Saturday Night","location_notes":" (Betw. Broadway & Seaman Avenue) NY 10034","wheelchair_accesible":"False","day":"Saturdays","start_time":"7:00 PM","end_time":"8:00 PM","type":"Meeting Type C = Closed Discussion meeting ","newAddress":"20 CUMMINGS ST New York NY ","latitude":"40.8665","longitude":"-73.9265"},{"address":"715 West 179th Street","details":"","building":"Holy Rood Church","title":"WASHINGTON HEIGHTS                  (:I) - Washington Heights    (:I)","location_notes":" @ Fort Washington NY 10033","wheelchair_accesible":"True","day":"Tuesdays","start_time":"7:30 PM","end_time":"8:30 PM","type":"Meeting Type O = Open meeting ","newAddress":"715 W 179TH ST New York NY ","latitude":"40.8490796467369","longitude":"-73.9373313893221"},{"address":"189th Street","details":"","building":"Cornerstone Center","title":"WASHINGTON HEIGHTS                 (:II) - Washington Heights    (:II)","location_notes":" Kitchen, (@ North Building) NY 10040","wheelchair_accesible":"False","day":"Thursdays","start_time":"7:30 PM","end_time":"8:30 PM","type":"Meeting Type C = Closed Discussion meeting ","newAddress":"189TH ST New York NY ","latitude":"40.6639307188879","longitude":"-73.9382749875207"},{"address":"178 Bennett Avenue","details":"","building":"The Corner Stone Center","title":"WHAT WE ARE LIKE NOW -","location_notes":" 2nd Floor, (@ 189th Street) 10040","wheelchair_accesible":"False","day":"Sundays","start_time":"6:00 PM","end_time":"7:00 PM","type":"Meeting Type C = Closed Discussion meeting ","newAddress":"178 BENNETT AVE New York NY ","latitude":"40.856","longitude":"-73.9343"}]